{"ports":[{"name":"A Coruña, Spain","location":{"lat":43.3623436,"lng":-8.4115401}},{"name":"Aberdeen, Scotland, United Kingdom","location":{"lat":57.149717,"lng":-2.094278}},{"name":"Abidjan, Ivory Coast","location":{"lat":5.3599517,"lng":-4.0082563}},{"name":"Acapulco, Mexico","location":{"lat":16.8531086,"lng":-99.8236533}},{"name":"Accra, Ghana","location":{"lat":5.6037168,"lng":-0.1869644}},{"name":"Adana, Turkey","location":{"lat":36.9914194,"lng":35.3308285}},{"name":"Adelaide, South Australia, Australia","location":{"lat":-34.92862119999999,"lng":138.5999594}},{"name":"Aden, Yemen","location":{"lat":12.7854969,"lng":45.0186548}},{"name":"Akureyri, Iceland","location":{"lat":65.68849209999999,"lng":-18.1261693}},{"name":"Al Duqm Port & Drydock, Duqm, Al Wusta Region, Oman","location":{"lat":19.6394818,"lng":57.67791059999999}},{"name":"Al Hoceima, Morocco","location":{"lat":35.2445589,"lng":-3.9317468}},{"name":"Alexandria, Egypt","location":{"lat":31.2000924,"lng":29.9187387}},{"name":"Alexandroupolis, Greece","location":{"lat":40.8457193,"lng":25.873962}},{"name":"Algeciras, Spain","location":{"lat":36.1407591,"lng":-5.456233}},{"name":"Algiers, Algeria","location":{"lat":36.7537703,"lng":3.0587927}},{"name":"Almería, Spain","location":{"lat":36.834047,"lng":-2.4637136}},{"name":"Ancona, Italy","location":{"lat":43.6158299,"lng":13.518915}},{"name":"Antalya, Turkey","location":{"lat":36.8968908,"lng":30.7133233}},{"name":"Antofagasta, Chile","location":{"lat":-23.6509279,"lng":-70.39750219999999}},{"name":"Aqaba, Jordan","location":{"lat":29.5319199,"lng":35.0060842}},{"name":"Arkhangelsk, Russia","location":{"lat":64.54725069999999,"lng":40.5601553}},{"name":"Ashtabula, Ohio, United States","location":{"lat":41.8650534,"lng":-80.7898089}},{"name":"Asseb, Eritrea","location":{"lat":13.0139405,"lng":42.7369299}},{"name":"Auckland, New Zealand","location":{"lat":-36.8484597,"lng":174.7633315}},{"name":"Aurora, Philippines","location":{"lat":7.954580399999998,"lng":123.5951925}},{"name":"Avilés, Spain","location":{"lat":43.5579523,"lng":-5.9246653}},{"name":"Azov, Russia","location":{"lat":47.09474460000001,"lng":39.4136552}},{"name":"Bahía Blanca, Argentina","location":{"lat":-38.7183177,"lng":-62.2663478}},{"name":"Baltimore, Maryland, United States","location":{"lat":39.2903848,"lng":-76.6121893}},{"name":"Banana, Democratic Republic of the Congo","location":{"lat":-5.987164099999999,"lng":12.3893488}},{"name":"Bandar Abbas, Iran","location":{"lat":27.1832216,"lng":56.2666455}},{"name":"Bandar Imam Khomeini, Iran","location":{"lat":30.4472068,"lng":49.0716096}},{"name":"Bangkok, Thailand","location":{"lat":13.7563309,"lng":100.5017651}},{"name":"Barcelona, Spain","location":{"lat":41.3850639,"lng":2.1734035}},{"name":"Bardia, Libya","location":{"lat":31.7609711,"lng":25.0932903}},{"name":"Bari, Italy","location":{"lat":41.1171432,"lng":16.8718715}},{"name":"Barranquilla, Colombia","location":{"lat":11.0041072,"lng":-74.80698129999999}},{"name":"Barrow, Alaska, United States","location":{"lat":71.29055559999999,"lng":-156.7886111}},{"name":"Barrow-in-Furness, England","location":{"lat":54.108967,"lng":-3.218894}},{"name":"Basse-Terre, Guadeloupe, France","location":{"lat":16.2073497,"lng":-61.6481441}},{"name":"Batangas, Philippines","location":{"lat":13.7564651,"lng":121.0583076}},{"name":"Batumi, Georgia","location":{"lat":41.6167547,"lng":41.6367455}},{"name":"Bayonne, France","location":{"lat":43.492949,"lng":-1.474841}},{"name":"Beirut, Lebanon","location":{"lat":33.8886289,"lng":35.4954794}},{"name":"Belfast, Northern Ireland","location":{"lat":54.59728500000001,"lng":-5.93012}},{"name":"Belize City, Belize","location":{"lat":17.5045661,"lng":-88.1962133}},{"name":"Belomorsk, Russia","location":{"lat":64.5281061,"lng":34.7710761}},{"name":"Belém, Brazil","location":{"lat":-1.4557549,"lng":-48.4901799}},{"name":"Benghazi, Libya","location":{"lat":32.0947711,"lng":20.1879106}},{"name":"Berbera, Somalia","location":{"lat":10.4347941,"lng":45.0139904}},{"name":"Berdiansk, Ukraine","location":{"lat":46.7737707,"lng":36.8034779}},{"name":"Bergen, Norway","location":{"lat":60.39126279999999,"lng":5.3220544}},{"name":"Bilhorod, Ukraine","location":{"lat":45.3438227,"lng":28.828133}},{"name":"Bintulu Port, Sarawak, Malaysia","location":{"lat":1.5532783,"lng":110.3592127}},{"name":"Blyth, England, United Kingdom","location":{"lat":55.126957,"lng":-1.510277}},{"name":"Bodrum, Turkey","location":{"lat":37.034407,"lng":27.43054}},{"name":"Bodø, Norway","location":{"lat":67.2803556,"lng":14.404916}},{"name":"Bordeaux, France","location":{"lat":44.837789,"lng":-0.57918}},{"name":"Bosaso, Somalia","location":{"lat":11.2755407,"lng":49.1878994}},{"name":"Botany Bay (Port Botany), New South Wales, Australia","location":{"lat":-33.9420631,"lng":151.2024725}},{"name":"Botwood, Newfoundland and Labrador, Canada","location":{"lat":49.1422983,"lng":-55.3440853}},{"name":"Bremen, Germany","location":{"lat":53.07929619999999,"lng":8.8016937}},{"name":"Bremerhaven, Germany","location":{"lat":53.5395845,"lng":8.5809424}},{"name":"Brest, France","location":{"lat":48.390394,"lng":-4.486076}},{"name":"Bridgetown, Barbados","location":{"lat":13.1132219,"lng":-59.59880889999999}},{"name":"Bristol Port, England, United Kingdom","location":{"lat":50.9551366,"lng":-2.5182776}},{"name":"Brunswick, Georgia, United States","location":{"lat":31.1499528,"lng":-81.49148939999999}},{"name":"Budva, Montenegro","location":{"lat":42.2911489,"lng":18.840295}},{"name":"Buenaventura, Colombia","location":{"lat":3.8830471,"lng":-77.01972119999999}},{"name":"Buenos Aires, Argentina","location":{"lat":-34.6036844,"lng":-58.3815591}},{"name":"Buffalo, New York, United States","location":{"lat":42.88644679999999,"lng":-78.8783689}},{"name":"Bundaberg, Queensland, Australia","location":{"lat":-24.8653911,"lng":152.3487394}},{"name":"Burela, Spain","location":{"lat":43.6602954,"lng":-7.3611092}},{"name":"Burns Harbor / Portage, Indiana, United States","location":{"lat":41.5869235,"lng":-87.1638454}},{"name":"Bécancour, Quebec, Canada","location":{"lat":46.3506215,"lng":-72.4350552}},{"name":"Cabinda, Angola","location":{"lat":-5.570573899999999,"lng":12.197583}},{"name":"Cabo San Lucas, Mexico","location":{"lat":22.8905327,"lng":-109.9167371}},{"name":"Caen (Ouistreham), France","location":{"lat":49.26849000000001,"lng":-0.261425}},{"name":"Caernarfon, Wales","location":{"lat":53.139551,"lng":-4.273911}},{"name":"Cagayan Freeport, Philippines","location":{"lat":14.8509585,"lng":120.2650849}},{"name":"Cagliari, Sardinia, Italy","location":{"lat":39.2238411,"lng":9.1216613}},{"name":"Cairnryan, Scotland","location":{"lat":54.976479,"lng":-5.0268868}},{"name":"Calabar, Nigeria","location":{"lat":4.9757165,"lng":8.3417006}},{"name":"Calais, France","location":{"lat":50.95129000000001,"lng":1.858686}},{"name":"Caldera, Puntarenas, Costa Rica","location":{"lat":9.9400553,"lng":-84.7276382}},{"name":"Callao, Peru","location":{"lat":-12.0508491,"lng":-77.1259843}},{"name":"Cam Ranh, Vietnam","location":{"lat":11.9008657,"lng":109.140438}},{"name":"Campeche, Mexico","location":{"lat":19.8301251,"lng":-90.5349087}},{"name":"Cape May, New Jersey, United States","location":{"lat":38.9351125,"lng":-74.90600529999999}},{"name":"Cape Town, South Africa","location":{"lat":-33.9248685,"lng":18.4240553}},{"name":"Cardiff, Wales","location":{"lat":51.48158100000001,"lng":-3.17909}},{"name":"Cartagena, Colombia","location":{"lat":10.3910485,"lng":-75.4794257}},{"name":"Cartagena, Spain","location":{"lat":37.6256827,"lng":-0.9965839}},{"name":"Cayenne, French Guiana, France","location":{"lat":5.1660547,"lng":-52.6441492}},{"name":"Cebu, Philippines","location":{"lat":10.3156992,"lng":123.8854366}},{"name":"Ceuta, Spain","location":{"lat":35.8893874,"lng":-5.3213455}},{"name":"Chalcis, Greece","location":{"lat":38.4645245,"lng":23.6050695}},{"name":"Charleston, South Carolina, United States","location":{"lat":32.7764749,"lng":-79.93105120000001}},{"name":"Chennai, Tamil Nadu, India","location":{"lat":13.0826802,"lng":80.2707184}},{"name":"Cherbourg, France","location":{"lat":49.6337308,"lng":-1.622137}},{"name":"Chetumal, Mexico","location":{"lat":18.5001889,"lng":-88.296146}},{"name":"Chioggia, Italy","location":{"lat":45.2198654,"lng":12.2790144}},{"name":"Chios, Greece","location":{"lat":38.3709813,"lng":26.1363457}},{"name":"Chittagong Port, Chittagong, Bangladesh","location":{"lat":22.3028336,"lng":91.7916369}},{"name":"Chongqing, China","location":{"lat":29.56301,"lng":106.551556}},{"name":"Churchill, Manitoba, Canada","location":{"lat":58.7684112,"lng":-94.16496400000001}},{"name":"Ciudad del Carmen, Mexico","location":{"lat":18.6504879,"lng":-91.80745859999999}},{"name":"Civitavecchia, Italy","location":{"lat":42.0924239,"lng":11.7954132}},{"name":"Cleveland, Ohio, United States","location":{"lat":41.49932,"lng":-81.6943605}},{"name":"Coatzacoalcos, Veracruz, Mexico","location":{"lat":18.1344779,"lng":-94.4589858}},{"name":"Cochin Port, Kerala, India","location":{"lat":9.9355741,"lng":76.2715308}},{"name":"Colombo, Sri Lanka","location":{"lat":6.9270786,"lng":79.861243}},{"name":"Colón, Panama","location":{"lat":9.3352868,"lng":-79.9416549}},{"name":"Copenhagen, Denmark","location":{"lat":55.6760968,"lng":12.5683371}},{"name":"Coquimbo, Chile","location":{"lat":-29.9590009,"lng":-71.3389183}},{"name":"Corinth, Greece","location":{"lat":37.9386365,"lng":22.9322383}},{"name":"Corinto, Nicaragua","location":{"lat":12.4907414,"lng":-87.1784334}},{"name":"Cork, Ireland","location":{"lat":51.8968917,"lng":-8.4863157}},{"name":"Cuddalore, Tamil Nadu, India","location":{"lat":11.744699,"lng":79.7680243}},{"name":"Cuxhaven, Germany","location":{"lat":53.859336,"lng":8.6879057}},{"name":"Cádiz, Spain","location":{"lat":36.5270612,"lng":-6.2885962}},{"name":"Da Nang Port, Vietnam","location":{"lat":16.0532004,"lng":108.2028401}},{"name":"Dakar, Senegal","location":{"lat":14.7645042,"lng":-17.3660286}},{"name":"Dalian, China","location":{"lat":38.91400300000001,"lng":121.614682}},{"name":"Dammam, Saudi Arabia","location":{"lat":26.3926665,"lng":49.9777136}},{"name":"Darwin, Northern Territory, Australia","location":{"lat":-12.4628271,"lng":130.8417772}},{"name":"Datca, Turkey","location":{"lat":36.726217,"lng":27.685844}},{"name":"Delfzijl, Netherlands","location":{"lat":53.33102719999999,"lng":6.924459799999999}},{"name":"Detroit, Michigan, United States","location":{"lat":42.331427,"lng":-83.0457538}},{"name":"Dhamra, Odisha, India","location":{"lat":20.79685,"lng":86.907043}},{"name":"Dieppe, France","location":{"lat":49.922992,"lng":1.077483}},{"name":"Dikson, Russia","location":{"lat":73.50489,"lng":80.580917}},{"name":"Djibouti City, Djibouti","location":{"lat":11.5720765,"lng":43.1456475}},{"name":"Doha, Qatar","location":{"lat":25.2854473,"lng":51.53103979999999}},{"name":"Dongying, China","location":{"lat":37.434751,"lng":118.674767}},{"name":"Douala, Cameroon","location":{"lat":4.0510564,"lng":9.7678687}},{"name":"Douglas, Isle of Man","location":{"lat":54.1523372,"lng":-4.4861228}},{"name":"Drogheda, Ireland","location":{"lat":53.717856,"lng":-6.3560985}},{"name":"Dubai, UAE","location":{"lat":25.2048493,"lng":55.2707828}},{"name":"Dublin, Ireland","location":{"lat":53.3498053,"lng":-6.2603097}},{"name":"Dudinka, Russia","location":{"lat":69.40419539999999,"lng":86.20029099999999}},{"name":"Duluth, Minnesota, United States","location":{"lat":46.78667189999999,"lng":-92.1004852}},{"name":"Dundalk, Ireland","location":{"lat":53.9979451,"lng":-6.405957}},{"name":"Dundee, Scotland, United Kingdom","location":{"lat":56.462018,"lng":-2.970721}},{"name":"Dunkerque (Duinkerken), France","location":{"lat":50.9890495,"lng":2.4007545}},{"name":"Durban, South Africa","location":{"lat":-29.85868039999999,"lng":31.0218404}},{"name":"Dún Laoghaire, Ireland","location":{"lat":53.2943958,"lng":-6.133866599999999}},{"name":"Eemshaven, Netherlands","location":{"lat":53.4385887,"lng":6.8354937}},{"name":"El Musel, Gijón, Spain","location":{"lat":43.5519173,"lng":-5.703665399999999}},{"name":"Eleusina, Greece","location":{"lat":38.0412749,"lng":23.5418125}},{"name":"Elizabeth, New Jersey, United States","location":{"lat":40.6639916,"lng":-74.2107006}},{"name":"Ellesmere, England","location":{"lat":52.906718,"lng":-2.900338}},{"name":"Emden, Germany","location":{"lat":53.35940290000001,"lng":7.2060095}},{"name":"Ennore, Tamil Nadu, India","location":{"lat":13.2145944,"lng":80.3202929}},{"name":"Erie, Pennsylvania, United States","location":{"lat":42.12922409999999,"lng":-80.085059}},{"name":"Esbjerg, Denmark","location":{"lat":55.476466,"lng":8.459405}},{"name":"Eureka, California, United States","location":{"lat":40.8020712,"lng":-124.1636729}},{"name":"Eyl, Somalia","location":{"lat":7.980799599999999,"lng":49.8150661}},{"name":"Falmouth, United Kingdom","location":{"lat":50.15257099999999,"lng":-5.066269999999999}},{"name":"Farasan (city), Saudi Arabia","location":{"lat":16.6960349,"lng":42.1226825}},{"name":"Ferrol, Spain","location":{"lat":43.48964600000001,"lng":-8.2193451}},{"name":"Fethiye, Turkey","location":{"lat":36.659246,"lng":29.126347}},{"name":"Fishguard, Wales","location":{"lat":51.993927,"lng":-4.975989000000001}},{"name":"Fleetwood, England","location":{"lat":53.916661,"lng":-3.035673}},{"name":"Flotta, Scotland, United Kingdom","location":{"lat":58.8299434,"lng":-3.1149787}},{"name":"Fort-de-France, Martinique, France","location":{"lat":14.6160647,"lng":-61.0587804}},{"name":"Fortaleza, Brazil","location":{"lat":-3.7318616,"lng":-38.5266704}},{"name":"Fraser Port, British Columbia, Canada","location":{"lat":49.269247,"lng":-122.758905}},{"name":"Freeport, Bahamas","location":{"lat":26.5416093,"lng":-78.64554749999999}},{"name":"Freetown, Sierra Leone","location":{"lat":8.4656765,"lng":-13.2317225}},{"name":"Fremantle, Western Australia, Australia","location":{"lat":-32.0560399,"lng":115.7471797}},{"name":"Galveston, Texas, United States","location":{"lat":29.3013479,"lng":-94.7976958}},{"name":"Galway, Ireland","location":{"lat":53.270668,"lng":-9.0567905}},{"name":"Gangavaram Port, Visakhapatnam, Andhra Pradesh, India","location":{"lat":17.6388875,"lng":83.2372175}},{"name":"Gangneung, South Korea","location":{"lat":37.751853,"lng":128.8760574}},{"name":"Garston, England","location":{"lat":51.681598,"lng":-0.391206}},{"name":"Geelong, Victoria, Australia","location":{"lat":-38.19214059999999,"lng":144.3904526}},{"name":"Genoa, Italy","location":{"lat":44.4056499,"lng":8.946256}},{"name":"Georgetown, Guyana","location":{"lat":6.8012793,"lng":-58.1551255}},{"name":"Gibraltar (British Overseas Territory)","location":{"lat":36.140751,"lng":-5.353585}},{"name":"Gioia Tauro, Italy","location":{"lat":38.4262258,"lng":15.8988669}},{"name":"Gladstone, Queensland, Australia","location":{"lat":-23.8487083,"lng":151.2597998}},{"name":"Glasgow, Scotland","location":{"lat":55.864237,"lng":-4.251806}},{"name":"Gopalpur, Odisha, India","location":{"lat":19.2647208,"lng":84.8620054}},{"name":"Gothenburg, Sweden","location":{"lat":57.70887,"lng":11.97456}},{"name":"Grand Harbour, Malta","location":{"lat":35.8922222,"lng":14.5127778}},{"name":"Grimsby, United Kingdom","location":{"lat":53.567471,"lng":-0.080784}},{"name":"Guanta, Venezuela","location":{"lat":10.2343685,"lng":-64.591805}},{"name":"Guantánamo, Cuba","location":{"lat":20.1400094,"lng":-75.2128996}},{"name":"Guayaquil, Ecuador","location":{"lat":-2.1709979,"lng":-79.9223592}},{"name":"Gulfport, Mississippi, United States","location":{"lat":30.3674198,"lng":-89.0928155}},{"name":"Gwadar Port, Balochistan, Pakistan","location":{"lat":25.1322572,"lng":62.3249859}},{"name":"Gwadar Port, Gwadar, Balochistan, Pakistan","location":{"lat":25.1322572,"lng":62.3249859}},{"name":"Haenam, South Korea","location":{"lat":34.5732516,"lng":126.5989274}},{"name":"Hai Phong Port, Vietnam","location":{"lat":20.8477132,"lng":106.7503711}},{"name":"Haldia, West Bengal, India","location":{"lat":22.0666742,"lng":88.06981180000001}},{"name":"Hamilton, Bermuda","location":{"lat":32.294816,"lng":-64.781375}},{"name":"Hamilton, Ontario, Canada","location":{"lat":43.25002080000001,"lng":-79.8660914}},{"name":"Hammerfest, Norway","location":{"lat":70.66343820000002,"lng":23.6819665}},{"name":"Hampton Roads, Virginia, United States","location":{"lat":37.0072752,"lng":-76.3698881}},{"name":"Hamriyah Port, Sharjah, UAE","location":{"lat":25.4678413,"lng":55.4838586}},{"name":"Hangu, China","location":{"lat":34.5341101,"lng":110.8932275}},{"name":"Harstad, Norway","location":{"lat":68.7986342,"lng":16.5414503}},{"name":"Harwich International Port, England, United Kingdom","location":{"lat":51.9474354,"lng":1.2552906}},{"name":"Havana, Cuba","location":{"lat":23.1135925,"lng":-82.3665956}},{"name":"Hay Point, Queensland, Australia","location":{"lat":-21.3055785,"lng":149.2921629}},{"name":"Helsingborg, Sweden","location":{"lat":56.0464674,"lng":12.6945121}},{"name":"Heraklion, Crete, Greece","location":{"lat":35.3387352,"lng":25.1442126}},{"name":"Heysham, England","location":{"lat":54.04199,"lng":-2.894475}},{"name":"Ho Chi Minh City (Saigon port), Vietnam","location":{"lat":10.7403122,"lng":106.7451184}},{"name":"Hobart, Tasmania, Australia","location":{"lat":-42.881903,"lng":147.323814}},{"name":"Hobyo, Somalia","location":{"lat":5.3515922,"lng":48.5249751}},{"name":"Holyhead, Wales","location":{"lat":53.309441,"lng":-4.633038}},{"name":"Honningsvåg, Norway","location":{"lat":70.9822909,"lng":25.9702074}},{"name":"Honolulu, Hawaii, United States","location":{"lat":21.3069444,"lng":-157.8583333}},{"name":"Huelva, Spain","location":{"lat":37.261421,"lng":-6.9447224}},{"name":"Hull, England, United Kingdom","location":{"lat":53.7456709,"lng":-0.3367413}},{"name":"Hungnam, North Korea","location":{"lat":39.8554302,"lng":127.6752642}},{"name":"Hurghada, Egypt","location":{"lat":27.26260,"lng":33.81976}},{"name":"INS Dronacharya, Kerala, India","location":{"lat":9.951673699999999,"lng":76.2424403}},{"name":"INS Dweeprakshak, Lakshadweep, India","location":{"lat":10.0760115,"lng":73.6303446}},{"name":"INS Kadamba, Karnataka, India","location":{"lat":12.9703048,"lng":77.7436828}},{"name":"INS Vajrabahu, Maharashtra, India","location":{"lat":19.7514798,"lng":75.7138884}},{"name":"INS Venduruthy, Kerala, India","location":{"lat":9.945833,"lng":76.287778}},{"name":"Igarka, Russia","location":{"lat":67.472042,"lng":86.55882}},{"name":"Illichivsk, Ukraine","location":{"lat":46.2952236,"lng":30.6480855}},{"name":"Iloilo, Philippines","location":{"lat":10.7201501,"lng":122.5621063}},{"name":"Immingham, England, United Kingdom","location":{"lat":53.614012,"lng":-0.215913}},{"name":"Intracoastal City, Louisiana, United States","location":{"lat":29.7843773,"lng":-92.15623860000001}},{"name":"Iquique, Chile","location":{"lat":-20.2307033,"lng":-70.1356692}},{"name":"Iskenderun, Turkey","location":{"lat":36.584673,"lng":36.1756161}},{"name":"Istanbul, Turkey","location":{"lat":41.0082376,"lng":28.9783589}},{"name":"Itajaí, Brazil","location":{"lat":-26.9105964,"lng":-48.6709514}},{"name":"Itapoá, Brazil","location":{"lat":-26.0713285,"lng":-48.6177384}},{"name":"Jacksonville, Florida, United States","location":{"lat":30.3321838,"lng":-81.65565099999999}},{"name":"Jakarta, Indonesia","location":{"lat":-6.2087634,"lng":106.845599}},{"name":"Jawaharlal Nehru Port Trust, Navi Mumbai, Maharashtra, India","location":{"lat":18.900996,"lng":72.9795051}},{"name":"Jebel Ali, Dubai, UAE","location":{"lat":24.9857145,"lng":55.0272904}},{"name":"Jeddah, Saudi Arabia","location":{"lat":21.2854067,"lng":39.2375507}},{"name":"Jinzhou, China","location":{"lat":39.05046,"lng":121.782769}},{"name":"Jizan, Saudi Arabia","location":{"lat":16.8893586,"lng":42.57056740000001}},{"name":"Johor Port, Malaysia","location":{"lat":1.6358478,"lng":103.665943}},{"name":"Jubail, Saudi Arabia","location":{"lat":26.9597709,"lng":49.5687416}},{"name":"Juneau, Alaska, United States","location":{"lat":58.3019444,"lng":-134.4197222}},{"name":"Kakinada, Andhra Pradesh, India","location":{"lat":16.9890648,"lng":82.2474648}},{"name":"Kandalaksha, Russia","location":{"lat":67.1700511,"lng":32.4229656}},{"name":"Kandla Port, Gujarat, India","location":{"lat":23.008141,"lng":70.1872551}},{"name":"Kandla, Gujarat, India","location":{"lat":23.008141,"lng":70.1872551}},{"name":"Kaohsiung, Taiwan","location":{"lat":22.6272784,"lng":120.3014353}},{"name":"Karachi Port, Karachi, Sindh, Pakistan","location":{"lat":24.8216668,"lng":66.9840893}},{"name":"Karaikal, Puducherry, India","location":{"lat":10.9254398,"lng":79.8380056}},{"name":"Kavala, Greece","location":{"lat":40.937607,"lng":24.412866}},{"name":"Keelung, Taiwan","location":{"lat":25.1276033,"lng":121.7391833}},{"name":"Kemaman Port, Terengganu, Malaysia","location":{"lat":5.3116916,"lng":103.1324154}},{"name":"Keti Bandar, Sindh, Pakistan","location":{"lat":24.1299447,"lng":67.453141}},{"name":"Khafji, Saudi Arabia","location":{"lat":28.4256618,"lng":48.4887224}},{"name":"Khalifa Bin Salman Port, Hidd, Bahrain","location":{"lat":26.18841,"lng":50.71598}},{"name":"Khawr Fakkan, Sharjah, UAE","location":{"lat":25.3365669,"lng":56.3432629}},{"name":"Khobar, Saudi Arabia","location":{"lat":26.2171906,"lng":50.1971381}},{"name":"Kingston, Jamaica","location":{"lat":18.0178743,"lng":-76.8099041}},{"name":"Kingston, Ontario, Canada","location":{"lat":44.2311717,"lng":-76.4859544}},{"name":"Kirkenes, Norway","location":{"lat":69.7269192,"lng":30.0450432}},{"name":"Kismaayo, Somalia","location":{"lat":-0.3560455,"lng":42.5460573}},{"name":"Kota Kinabalu, Sabah, Malaysia","location":{"lat":5.980408,"lng":116.0734568}},{"name":"Krishnapatnam Port, Andhra Pradesh, India","location":{"lat":14.2545822,"lng":80.109357}},{"name":"Kristiansand, Norway","location":{"lat":58.15991189999999,"lng":8.0182064}},{"name":"Kuantan Port, Pahang, Malaysia","location":{"lat":3.966689,"lng":103.419311}},{"name":"Kuching Port, Sarawak, Malaysia","location":{"lat":1.5584206,"lng":110.396043}},{"name":"Kuşadası, Turkey","location":{"lat":37.857913,"lng":27.261015}},{"name":"Kwai Chung, Hong Kong, China","location":{"lat":22.3668502,"lng":114.1302591}},{"name":"La Guaira, Venezuela","location":{"lat":10.587508,"lng":-66.9213628}},{"name":"La Rochelle, France","location":{"lat":46.160329,"lng":-1.151139}},{"name":"Laem Chabang, Thailand","location":{"lat":13.1040552,"lng":100.9158073}},{"name":"Lagos, Nigeria","location":{"lat":6.5243793,"lng":3.3792057}},{"name":"Lake Charles, Louisiana, United States","location":{"lat":30.2265949,"lng":-93.2173758}},{"name":"Larnaca, Cyprus","location":{"lat":34.9002535,"lng":33.6231723}},{"name":"Larne, Northern Ireland","location":{"lat":54.8578003,"lng":-5.8236224}},{"name":"Las Khorey, Somalia","location":{"lat":11.16448,"lng":48.19503}},{"name":"Las Palmas de Gran Canaria, Canary Islands, Spain","location":{"lat":28.1235459,"lng":-15.4362574}},{"name":"Latakia, Syria","location":{"lat":35.5407103,"lng":35.7952667}},{"name":"Laurium, Greece","location":{"lat":37.720531,"lng":24.0463999}},{"name":"Le Havre, France","location":{"lat":49.49437,"lng":0.107929}},{"name":"Legazpi, Philippines","location":{"lat":13.1390621,"lng":123.7437995}},{"name":"Leith, Scotland, United Kingdom","location":{"lat":55.975117,"lng":-3.166243}},{"name":"Les Sables-d'Olonne, France","location":{"lat":46.49295799999999,"lng":-1.795493}},{"name":"Libreville, Gabon","location":{"lat":0.4161976,"lng":9.4672676}},{"name":"Limassol, Cyprus","location":{"lat":34.7071301,"lng":33.0226174}},{"name":"Limón, Costa Rica","location":{"lat":9.9913106,"lng":-83.04150779999999}},{"name":"Lisbon, Portugal","location":{"lat":38.7222524,"lng":-9.1393366}},{"name":"Liverpool, England","location":{"lat":53.4083714,"lng":-2.9915726}},{"name":"Livorno, Italy","location":{"lat":43.548473,"lng":10.3105674}},{"name":"Lomé, Togo","location":{"lat":6.1724969,"lng":1.2313618}},{"name":"Louisiana Offshore Oil Port, Louisiana, United States","location":{"lat":30.9842977,"lng":-91.96233269999999}},{"name":"Luanda, Angola","location":{"lat":-8.839987599999999,"lng":13.2894368}},{"name":"Lushun/Lushunkou, China","location":{"lat":38.7833333,"lng":121.25}},{"name":"Lyttelton, New Zealand","location":{"lat":-43.6032583,"lng":172.7193227}},{"name":"Machilipatnam, Andhra Pradesh, India","location":{"lat":16.1905457,"lng":81.1361543}},{"name":"Malabo, Equatorial Guinea","location":{"lat":3.7504118,"lng":8.7371039}},{"name":"Malmö, Sweden","location":{"lat":55.604981,"lng":13.003822}},{"name":"Mangalia, Romania","location":{"lat":43.8152436,"lng":28.5741496}},{"name":"Mangalore, Karnataka, India","location":{"lat":12.9141417,"lng":74.8559568}},{"name":"Maputo, Mozambique","location":{"lat":-25.891968,"lng":32.6051351}},{"name":"Maracaibo, Venezuela","location":{"lat":10.6544509,"lng":-71.7147951}},{"name":"Mareeg, Somalia","location":{"lat":3.7613889,"lng":47.29916670000001}},{"name":"Mariupol, Ukraine","location":{"lat":47.097133,"lng":37.543367}},{"name":"Marmaris, Turkey","location":{"lat":36.854936,"lng":28.270878}},{"name":"Marseille, France","location":{"lat":43.296482,"lng":5.36978}},{"name":"Massawa, Eritrea","location":{"lat":15.607875,"lng":39.4553839}},{"name":"Matamoros, Tamaulipas, Mexico","location":{"lat":25.8690294,"lng":-97.50273759999999}},{"name":"Matanzas, Matanzas, Cuba","location":{"lat":23.0303395,"lng":-81.5322149}},{"name":"Mazatlán, Mexico","location":{"lat":23.2494148,"lng":-106.4111425}},{"name":"Melford, Nova Scotia, Canada (proposed)","location":{"lat":45.87333,"lng":-61.259494}},{"name":"Melilla, Spain","location":{"lat":35.2922775,"lng":-2.9380973}},{"name":"Merca, Somalia","location":{"lat":1.7174656,"lng":44.7686135}},{"name":"Mersa Matruh, Egypt","location":{"lat":31.3543445,"lng":27.2373159}},{"name":"Mersin, Turkey","location":{"lat":36.8121041,"lng":34.6414811}},{"name":"Messina, Sicily, Italy","location":{"lat":38.1938137,"lng":15.5540152}},{"name":"Middlesbrough, England, United Kingdom","location":{"lat":54.574227,"lng":-1.234956}},{"name":"Midia, Năvodari, Romania","location":{"lat":44.35,"lng":28.68333329999999}},{"name":"Milford Haven, Wales","location":{"lat":51.714306,"lng":-5.042697}},{"name":"Milwaukee, Wisconsin, United States","location":{"lat":43.0389025,"lng":-87.9064736}},{"name":"Mina Salman Port, Manama, Bahrain","location":{"lat":26.2285161,"lng":50.5860497}},{"name":"Miri Port, Sarawak, Malaysia","location":{"lat":1.5532783,"lng":110.3592127}},{"name":"Misrata, Libya","location":{"lat":32.3196827,"lng":15.1025075}},{"name":"Mogadishu, Somalia","location":{"lat":2.0469343,"lng":45.3181623}},{"name":"Mombasa, Kenya","location":{"lat":-4.0434771,"lng":39.6682065}},{"name":"Monfalcone, Italy","location":{"lat":45.8050468,"lng":13.5331727}},{"name":"Mongla Port, Khulna, Bangladesh","location":{"lat":22.4904697,"lng":89.59160519999999}},{"name":"Monrovia, Liberia","location":{"lat":6.2907432,"lng":-10.7605239}},{"name":"Montevideo, Uruguay","location":{"lat":-34.9011127,"lng":-56.16453139999999}},{"name":"Montreal, Quebec, Canada","location":{"lat":45.5016889,"lng":-73.567256}},{"name":"Mormugão, Goa, India","location":{"lat":15.3874352,"lng":73.8154394}},{"name":"Mostyn, Wales","location":{"lat":53.31297989999999,"lng":-3.2692784}},{"name":"Mukalla, Yemen","location":{"lat":14.5404328,"lng":49.127197}},{"name":"Mundra Port, Gujarat, India","location":{"lat":23.0944493,"lng":70.12175719999999}},{"name":"Mundra, Gujarat, India","location":{"lat":22.8395202,"lng":69.7213266}},{"name":"Murmansk, Russia","location":{"lat":68.9585244,"lng":33.0826598}},{"name":"Mytilene, Greece","location":{"lat":39.1067382,"lng":26.5572747}},{"name":"Málaga, Spain","location":{"lat":36.721261,"lng":-4.4212655}},{"name":"Nador, Morocco","location":{"lat":35.1686165,"lng":-2.9275836}},{"name":"Nagapattinam, Tamil Nadu, India","location":{"lat":10.7656082,"lng":79.8423888}},{"name":"Nakhodka, Russia","location":{"lat":42.8222753,"lng":132.8834039}},{"name":"Namp'o, North Korea","location":{"lat":38.7522606,"lng":125.3246769}},{"name":"Nantes, France","location":{"lat":47.218371,"lng":-1.553621}},{"name":"Nanticoke, Ontario, Canada","location":{"lat":42.80907,"lng":-80.08228299999999}},{"name":"Naples, Italy","location":{"lat":40.8517746,"lng":14.2681244}},{"name":"Narvik, Norway","location":{"lat":68.4384984,"lng":17.4272612}},{"name":"Naryan-Mar, Russia","location":{"lat":67.67100669999999,"lng":53.1078339}},{"name":"Nassau, Bahamas","location":{"lat":25.0479835,"lng":-77.355413}},{"name":"Necochea, Argentina","location":{"lat":-38.5544968,"lng":-58.73960879999999}},{"name":"Nelson, New Zealand","location":{"lat":-41.2706319,"lng":173.2839653}},{"name":"New Mangalore port, Karnataka, India","location":{"lat":12.9522341,"lng":74.81296929999999}},{"name":"New Plymouth, New Zealand","location":{"lat":-39.0556253,"lng":174.0752278}},{"name":"Newcastle, England, United Kingdom","location":{"lat":54.978252,"lng":-1.61778}},{"name":"Newcastle, New South Wales, Australia","location":{"lat":-32.926696,"lng":151.7788922}},{"name":"Newhaven, United Kingdom","location":{"lat":50.79307000000001,"lng":0.045574}},{"name":"Ningbo, China","location":{"lat":29.868336,"lng":121.54399}},{"name":"Nome, Alaska, United States","location":{"lat":64.5011111,"lng":-165.4063889}},{"name":"Norfolk, Virginia, United States","location":{"lat":36.8507689,"lng":-76.28587259999999}},{"name":"Novorossiysk, Russia","location":{"lat":44.7154014,"lng":37.7619669}},{"name":"Odessa, Ukraine","location":{"lat":46.482526,"lng":30.7233095}},{"name":"Oostende, Belgium","location":{"lat":51.21543,"lng":2.928656}},{"name":"Oranjestad, Aruba, Netherlands","location":{"lat":12.5092044,"lng":-70.0086306}},{"name":"Oshawa, Ontario, Canada","location":{"lat":43.8970929,"lng":-78.86579119999999}},{"name":"Oslo, Norway","location":{"lat":59.9138688,"lng":10.7522454}},{"name":"Ostend, Belgium","location":{"lat":51.21543,"lng":2.928656}},{"name":"Palermo, Sicily, Italy","location":{"lat":38.1156879,"lng":13.3612671}},{"name":"Palma de Mallorca, Spain","location":{"lat":39.5696005,"lng":2.6501603}},{"name":"Panama City, Florida, United States","location":{"lat":30.1588129,"lng":-85.6602058}},{"name":"Panama City, Panama","location":{"lat":9.1011785,"lng":-79.4028639}},{"name":"Paradeep, Odisha, India","location":{"lat":20.3165523,"lng":86.6113628}},{"name":"Paramaribo, Suriname","location":{"lat":5.8520355,"lng":-55.2038278}},{"name":"Paranaguá, Brazil","location":{"lat":-25.5165725,"lng":-48.5229975}},{"name":"Pasaia, Spain","location":{"lat":43.32547030000001,"lng":-1.9301396}},{"name":"Patras, Greece","location":{"lat":38.2466395,"lng":21.734574}},{"name":"Pedernales, Venezuela","location":{"lat":10.423219,"lng":-70.198013}},{"name":"Pembroke Dock, Wales","location":{"lat":51.691894,"lng":-4.943763}},{"name":"Penang, Malaysia","location":{"lat":5.414921,"lng":100.3297612}},{"name":"Pensacola, Florida, United States","location":{"lat":30.42130899999999,"lng":-87.2169149}},{"name":"Pevek, Russia","location":{"lat":69.692947,"lng":170.399612}},{"name":"Piombino, Italy","location":{"lat":42.9256335,"lng":10.5258891}},{"name":"Piraeus, Greece","location":{"lat":37.9429857,"lng":23.6469832}},{"name":"Piso Point Port, Philippines","location":{"lat":12.879721,"lng":121.774017}},{"name":"Piso Point Port, Philippines","location":{"lat":12.879721,"lng":121.774017}},{"name":"Pittsburg, California, United States","location":{"lat":38.0279762,"lng":-121.8846806}},{"name":"Plaquemines Port, Louisiana, United States","location":{"lat":30.3603055,"lng":-91.26090239999999}},{"name":"Plymouth, United Kingdom","location":{"lat":50.3754565,"lng":-4.1426565}},{"name":"Point Lisas, Trinidad and Tobago","location":{"lat":10.4184171,"lng":-61.4851397}},{"name":"Pointe-à-Pitre, Guadeloupe, France","location":{"lat":16.2376869,"lng":-61.5340424}},{"name":"Ponce, Puerto Rico, United States","location":{"lat":18.004089,"lng":-66.5842402}},{"name":"Port Blair, Andaman & Nicobar Islands, India","location":{"lat":11.6879216,"lng":92.72417809999999}},{"name":"Port Canaveral, Florida, United States","location":{"lat":28.4103506,"lng":-80.61881559999999}},{"name":"Port Chalmers, New Zealand","location":{"lat":-45.81589659999999,"lng":170.6213504}},{"name":"Port Corpus Christi, Texas, United States","location":{"lat":27.7664367,"lng":-97.4202184}},{"name":"Port Elizabeth, South Africa","location":{"lat":-33.7139247,"lng":25.5207358}},{"name":"Port Everglades, Florida, United States","location":{"lat":26.0937112,"lng":-80.12466429999999}},{"name":"Port Fourchon, Louisiana, United States","location":{"lat":29.10556,"lng":-90.19444}},{"name":"Port Hedland, Western Australia, Australia","location":{"lat":-20.3116266,"lng":118.5752577}},{"name":"Port Hueneme, California, United States","location":{"lat":34.1477829,"lng":-119.1951074}},{"name":"Port Jackson (Sydney Harbour), New South Wales, Australia","location":{"lat":-33.8524919,"lng":151.1967667}},{"name":"Port Kembla, New South Wales, Australia","location":{"lat":-34.4800735,"lng":150.900495}},{"name":"Port Klang, Malaysia","location":{"lat":3.005078,"lng":101.4086}},{"name":"Port Lincoln, South Australia, Australia","location":{"lat":-34.7195321,"lng":135.8574623}},{"name":"Port Louis, Mauritius","location":{"lat":-20.1668958,"lng":57.502332}},{"name":"Port Metro Vancouver, British Columbia, Canada","location":{"lat":49.2023021,"lng":-122.8505687}},{"name":"Port Moresby, Papua New Guinea","location":{"lat":-9.443800399999999,"lng":147.1802671}},{"name":"Port Penrhyn, Wales","location":{"lat":53.2329758,"lng":-4.1095952}},{"name":"Port Pirie, South Australia, Australia","location":{"lat":-33.1770846,"lng":138.0100573}},{"name":"Port Qasim, Sindh, Pakistan","location":{"lat":24.8075944,"lng":67.4043578}},{"name":"Port Said, Egypt","location":{"lat":31.2652893,"lng":32.3018661}},{"name":"Port Sudan, Sudan","location":{"lat":19.5903471,"lng":37.1901616}},{"name":"Port Sultan Qaboos, Muttrah, Muscat Governorate, Oman","location":{"lat":23.60917,"lng":58.55170279999999}},{"name":"Port of Albany-Rensselaer, New York, United States","location":{"lat":42.6209167,"lng":-73.7617625}},{"name":"Port of Amsterdam, Netherlands","location":{"lat":52.3076865,"lng":4.767424099999999}},{"name":"Port of Anchorage, Alaska, United States","location":{"lat":61.24027779999999,"lng":-149.8861111}},{"name":"Port of Antwerp, Belgium","location":{"lat":51.18874599999999,"lng":4.4608734}},{"name":"Port of Ashdod, Israel","location":{"lat":31.828191,"lng":34.644543}},{"name":"Port of Bar, Montenegro","location":{"lat":42.0874617,"lng":19.0839592}},{"name":"Port of Beaumont, Texas, United States","location":{"lat":29.950833,"lng":-94.02069399999999}},{"name":"Port of Bellingham, Washington, United States","location":{"lat":48.7573088,"lng":-122.4953028}},{"name":"Port of Bilbao, Spain","location":{"lat":39.6586641,"lng":-0.2146311}},{"name":"Port of Boston, Massachusetts, United States","location":{"lat":42.3656132,"lng":-71.0095602}},{"name":"Port of Brisbane, Queensland, Australia","location":{"lat":-27.384896,"lng":153.17629}},{"name":"Port of Bruges-Zeebrugge, Belgium","location":{"lat":51.3189468,"lng":3.2068507}},{"name":"Port of Burgas, Bulgaria","location":{"lat":42.5666251,"lng":27.5181281}},{"name":"Port of Busan, South Korea","location":{"lat":35.1035355,"lng":129.0423688}},{"name":"Port of Bushehr, Bushehr Province, Iran","location":{"lat":28.5059703,"lng":51.1018856}},{"name":"Port of Cabo Rojo, Dominican Republic","location":{"lat":18.57572,"lng":-72.34528}},{"name":"Port of Casablanca, Morocco","location":{"lat":33.6037308,"lng":-7.5965129}},{"name":"Port of Chabahar, Iran","location":{"lat":25.0685696,"lng":61.4170251}},{"name":"Port of Chicago, Illinois, United States","location":{"lat":42.4208083,"lng":-87.9236493}},{"name":"Port of Constanţa, Romania","location":{"lat":44.0962,"lng":28.6586807}},{"name":"Port of Davao, Philippines","location":{"lat":5.412639899999999,"lng":125.426504}},{"name":"Port of Djibouti, Djibouti","location":{"lat":11.547222,"lng":43.1591669}},{"name":"Port of Dover, United Kingdom","location":{"lat":53.2662728,"lng":-2.8910572}},{"name":"Port of Durrës, Albania","location":{"lat":41.3186303,"lng":19.461763}},{"name":"Port of Eilat, Israel","location":{"lat":29.5322417,"lng":34.9404278}},{"name":"Port of Ensenada, Mexico","location":{"lat":17.5559303,"lng":-99.5131653}},{"name":"Port of Erdemir, Turkey","location":{"lat":41.30541,"lng":36.34106}},{"name":"Port of Everett, Washington, United States","location":{"lat":47.9523473,"lng":-122.2898544}},{"name":"Port of Felixstowe, England, United Kingdom","location":{"lat":51.9682945,"lng":1.3243621}},{"name":"Port of Ghent, Belgium","location":{"lat":51.0261881,"lng":3.6842537}},{"name":"Port of Guangzhou, Guangdong, China","location":{"lat":23.1267984,"lng":113.3050189}},{"name":"Port of Hafnarfjörður, Iceland","location":{"lat":64.06679,"lng":-21.98733}},{"name":"Port of Haifa, Israel","location":{"lat":32.826722,"lng":34.994041}},{"name":"Port of Halifax, Nova Scotia, Canada","location":{"lat":44.666193,"lng":-63.622435}},{"name":"Port of Hamburg, Germany","location":{"lat":53.5069321,"lng":9.9679781}},{"name":"Port of Hong Kong, China","location":{"lat":22.5149951,"lng":114.0650784}},{"name":"Port of Houston, Texas, United States","location":{"lat":29.7680253,"lng":-95.28097419999999}},{"name":"Port of Incheon, South Korea","location":{"lat":37.4562557,"lng":126.7052062}},{"name":"Port of Kaohsiung, Taiwan","location":{"lat":22.574629,"lng":120.3448068}},{"name":"Port of Karachi, Sindh, Pakistan","location":{"lat":24.8216668,"lng":66.9840893}},{"name":"Port of Kobe, Japan","location":{"lat":34.690083,"lng":135.1955112}},{"name":"Port of Kolkata, West Bengal, India","location":{"lat":22.5417433,"lng":88.3087441}},{"name":"Port of Koper, Slovenia","location":{"lat":45.54805899999999,"lng":13.7301877}},{"name":"Port of London, United Kingdom","location":{"lat":51.5100937,"lng":-0.07809819999999999}},{"name":"Port of Long Beach, California, United States","location":{"lat":33.754185,"lng":-118.216458}},{"name":"Port of Longview, Washington, United States","location":{"lat":47.5193248,"lng":-122.6578944}},{"name":"Port of Los Angeles, California, United States","location":{"lat":33.7380087,"lng":-118.2602462}},{"name":"Port of Madras, Tamil Nadu, India","location":{"lat":12.994112,"lng":80.1708668}},{"name":"Port of Manila, Philippines","location":{"lat":14.5122739,"lng":121.016508}},{"name":"Port of Melbourne, Victoria, Australia","location":{"lat":-37.83414860000001,"lng":144.9391978}},{"name":"Port of Miami, Florida, United States","location":{"lat":25.7745435,"lng":-80.1708802}},{"name":"Port of Mobile, Alabama, United States","location":{"lat":30.663839,"lng":-88.14352099999999}},{"name":"Port of Montreal, Quebec, Canada","location":{"lat":45.5124578,"lng":-73.5484867}},{"name":"Port of Mumbai, Maharashtra, India","location":{"lat":18.950159,"lng":72.821348}},{"name":"Port of Napier, New Zealand","location":{"lat":-39.4738444,"lng":176.9048041}},{"name":"Port of New Orleans, Louisiana, United States","location":{"lat":29.94476079999999,"lng":-90.0624039}},{"name":"Port of New York and New Jersey, United States","location":{"lat":40.7243694,"lng":-73.9958931}},{"name":"Port of Oakland, California, United States","location":{"lat":37.8002284,"lng":-122.203428}},{"name":"Port of Ormara, Ormara, Balochistan, Pakistan","location":{"lat":25.2012368,"lng":64.6673497}},{"name":"Port of Pasni, Pasni, Balochistan, Pakistan","location":{"lat":25.2637184,"lng":63.4762488}},{"name":"Port of Pescara, Italy","location":{"lat":43.4618477,"lng":13.5721546}},{"name":"Port of Philadelphia, Pennsylvania, United States","location":{"lat":39.9771612,"lng":-75.1520773}},{"name":"Port of Pichilingue/La Paz, Mexico","location":{"lat":24.27772,"lng":-110.3305}},{"name":"Port of Ploče, Croatia","location":{"lat":42.6613889,"lng":18.0813889}},{"name":"Port of Port Harcourt, Nigeria","location":{"lat":5.014444,"lng":6.950278}},{"name":"Port of Portland, Oregon, United States","location":{"lat":43.687762,"lng":-70.25016800000002}},{"name":"Port of Prince Rupert, British Columbia, Canada","location":{"lat":54.219551,"lng":-130.308951}},{"name":"Port of Redwood City, California, United States","location":{"lat":37.5132701,"lng":-122.2085765}},{"name":"Port of Rijeka, Croatia","location":{"lat":45.216667,"lng":14.57}},{"name":"Port of Rotterdam & Europoort, Netherlands","location":{"lat":51.9432256,"lng":4.150799}},{"name":"Port of Salalah, Salalah, Dhofar Governorate, Oman","location":{"lat":17.0506675,"lng":54.1065864}},{"name":"Port of San Diego, California, United States","location":{"lat":32.7338006,"lng":-117.1933038}},{"name":"Port of Santo Domingo, Dominican Republic","location":{"lat":18.469606,"lng":-69.8830067}},{"name":"Port of Santos near São Paulo, Brazil","location":{"lat":-23.9496338,"lng":-46.33435900000001}},{"name":"Port of Savannah, Georgia, United States","location":{"lat":32.1294267,"lng":-81.2018521}},{"name":"Port of Seattle, Washington, United States","location":{"lat":47.8027598,"lng":-122.1129089}},{"name":"Port of Shanghai, China","location":{"lat":31.2882977,"lng":121.5618858}},{"name":"Port of Shenzhen, Guangdong, China","location":{"lat":22.5197727,"lng":114.0755129}},{"name":"Port of Singapore, Singapore","location":{"lat":1.2670651,"lng":103.8038239}},{"name":"Port of Sohar, Sohar, Dhofar Governorate, Oman","location":{"lat":24.51245,"lng":56.62079}},{"name":"Port of Southampton, United Kingdom","location":{"lat":50.9514562,"lng":-1.3577022}},{"name":"Port of Spain, Trinidad and Tobago","location":{"lat":10.6549013,"lng":-61.50192559999999}},{"name":"Port of Spain, Trinidad and Tobago","location":{"lat":10.6549013,"lng":-61.50192559999999}},{"name":"Port of Split, Croatia","location":{"lat":43.5389248,"lng":16.2977741}},{"name":"Port of Tacoma, Washington, United States","location":{"lat":47.2654682,"lng":-122.4123139}},{"name":"Port of Tampa, Florida, United States","location":{"lat":27.0051667,"lng":-82.0740457}},{"name":"Port of Tanjung Pelepas, Malaysia","location":{"lat":1.363635,"lng":103.5478}},{"name":"Port of Tilbury, England, United Kingdom","location":{"lat":51.45732719999999,"lng":0.3523195}},{"name":"Port of Tokyo, Japan","location":{"lat":35.5523957,"lng":139.7339681}},{"name":"Port of Trieste, Italy","location":{"lat":43.8882458,"lng":8.031995199999999}},{"name":"Port of Vancouver, British Columbia, Canada","location":{"lat":49.1966913,"lng":-123.1815123}},{"name":"Port of Varna, Bulgaria","location":{"lat":43.231944,"lng":27.825278}},{"name":"Port of Vigo, Spain","location":{"lat":42.2256755,"lng":-8.629473700000002}},{"name":"Port of Vlorë, Albania","location":{"lat":40.4521886,"lng":19.4832659}},{"name":"Port of Yokohama, Japan","location":{"lat":35.5613812,"lng":139.566473}},{"name":"Port-au-Prince, Haiti","location":{"lat":18.594395,"lng":-72.3074326}},{"name":"Portland Harbour, United Kingdom","location":{"lat":50.5710791,"lng":-2.4526813}},{"name":"Portland, Maine, United States","location":{"lat":43.66147100000001,"lng":-70.2553259}},{"name":"Portland, Victoria, Australia","location":{"lat":-38.3463453,"lng":141.6042096}},{"name":"Porto Alegre, Brazil","location":{"lat":-30.0346471,"lng":-51.2176584}},{"name":"Porto Marghera, Italy","location":{"lat":45.4627674,"lng":12.2669663}},{"name":"Porto Velho, Brazil","location":{"lat":-8.761160499999999,"lng":-63.9004303}},{"name":"Porto, Portugal","location":{"lat":41.1579438,"lng":-8.629105299999999}},{"name":"Portsmouth, United Kingdom","location":{"lat":50.8197675,"lng":-1.0879769}},{"name":"Poti, Georgia","location":{"lat":42.1582596,"lng":41.67137}},{"name":"Progreso, Mexico","location":{"lat":21.2811908,"lng":-89.66516279999999}},{"name":"Prudhoe Bay, Alaska, United States","location":{"lat":70.2556453,"lng":-148.3384293}},{"name":"Puerto Barrios, Guatemala","location":{"lat":15.695364,"lng":-88.58551729999999}},{"name":"Puerto Cabello, Venezuela","location":{"lat":10.4697685,"lng":-68.02986539999999}},{"name":"Puerto Castilla, Honduras","location":{"lat":16.0173268,"lng":-85.9585544}},{"name":"Puerto Cortés, Honduras","location":{"lat":15.825072,"lng":-87.92857769999999}},{"name":"Puerto Montt, Chile","location":{"lat":-41.468917,"lng":-72.94113639999999}},{"name":"Puerto Plata, Dominican Republic","location":{"lat":19.7807686,"lng":-70.6871091}},{"name":"Puerto Princesa, Philippines","location":{"lat":9.967216299999999,"lng":118.78551}},{"name":"Puerto Vallarta, Mexico","location":{"lat":20.653407,"lng":-105.2253316}},{"name":"Puerto Williams, Chile","location":{"lat":-54.9352098,"lng":-67.6058537}},{"name":"Punta Alta, Argentina","location":{"lat":-38.8760605,"lng":-62.07408900000001}},{"name":"Punta Arenas, Chile","location":{"lat":-53.1638329,"lng":-70.9170683}},{"name":"Qandala, Somalia","location":{"lat":11.4720137,"lng":49.87392670000001}},{"name":"Qingdao, China","location":{"lat":36.067108,"lng":120.382609}},{"name":"Qinhuangdao, China","location":{"lat":39.935385,"lng":119.600493}},{"name":"Quebec City, Quebec, Canada","location":{"lat":46.8138783,"lng":-71.2079809}},{"name":"Quy Nhon Port, Vietnam","location":{"lat":13.7799153,"lng":109.2451471}},{"name":"Rabigh, Saudi Arabia","location":{"lat":22.7906701,"lng":39.0189623}},{"name":"Rajang Port, Sibu, Sarawak, Malaysia","location":{"lat":2.287284,"lng":111.830535}},{"name":"Ramsgate, United Kingdom","location":{"lat":51.335545,"lng":1.419895}},{"name":"Ras Kamboni, Somalia","location":{"lat":-1.6360371,"lng":41.5837116}},{"name":"Ras Tanura, Saudi Arabia","location":{"lat":26.773008,"lng":49.998236}},{"name":"Rason, North Korea","location":{"lat":42.2569063,"lng":130.2977186}},{"name":"Ravenna, Italy","location":{"lat":44.4183598,"lng":12.2035294}},{"name":"Recife, Brazil","location":{"lat":-8.0578381,"lng":-34.8828969}},{"name":"Reykjavík, Iceland","location":{"lat":64.12652059999999,"lng":-21.8174393}},{"name":"Rhodes, Greece","location":{"lat":36.4349631,"lng":28.2174829}},{"name":"Richards Bay, South Africa","location":{"lat":-28.7807276,"lng":32.0382856}},{"name":"Richmond, California, United States","location":{"lat":37.9357576,"lng":-122.3477486}},{"name":"Rio de Janeiro, Brazil","location":{"lat":-22.9068467,"lng":-43.1728965}},{"name":"Rizhao, China","location":{"lat":35.416734,"lng":119.526925}},{"name":"Roatán, Honduras","location":{"lat":16.3239655,"lng":-86.53501759999999}},{"name":"Rosslare Europort, Ireland","location":{"lat":52.255556,"lng":-6.334444}},{"name":"Runcorn, England","location":{"lat":53.342078,"lng":-2.729673}},{"name":"Sacramento, California, United States","location":{"lat":38.5815719,"lng":-121.4943996}},{"name":"Sai Gon New Port, Ho Chi Minh City, Viet Nam","location":{"lat":10.749779,"lng":106.7415245}},{"name":"Saint John, New Brunswick, Canada","location":{"lat":45.2733153,"lng":-66.0633081}},{"name":"Saint-Malo, France","location":{"lat":48.649337,"lng":-2.025674}},{"name":"Salisbury, Maryland, United States","location":{"lat":38.3606736,"lng":-75.5993692}},{"name":"Salvador, Brazil","location":{"lat":-12.9730401,"lng":-38.502304}},{"name":"Samsun, Turkey","location":{"lat":41.2797031,"lng":36.3360667}},{"name":"San Antonio, Chile","location":{"lat":-33.5922807,"lng":-71.6055123}},{"name":"San Francisco, California, United States","location":{"lat":37.7749295,"lng":-122.4194155}},{"name":"San Juan, Puerto Rico, United States","location":{"lat":18.4663338,"lng":-66.1057217}},{"name":"San Lorenzo, Honduras","location":{"lat":13.4326204,"lng":-87.45544319999999}},{"name":"Santa Cruz de Tenerife, Canary Islands, Spain","location":{"lat":28.4636296,"lng":-16.2518467}},{"name":"Santander, Spain","location":{"lat":43.46230569999999,"lng":-3.8099803}},{"name":"Santiago de Cuba, Cuba","location":{"lat":20.01693,"lng":-75.8301537}},{"name":"Santo Tomás de Castilla, Guatemala","location":{"lat":15.6896526,"lng":-88.6096575}},{"name":"Santos, Brazil","location":{"lat":-23.9678823,"lng":-46.3288865}},{"name":"Sault Ste. Marie, Michigan, United States","location":{"lat":46.4952996,"lng":-84.3453169}},{"name":"Sault Ste. Marie, Ontario, Canada","location":{"lat":46.52185799999999,"lng":-84.3460896}},{"name":"Scarborough, Trinidad and Tobago - since 1991","location":{"lat":54.283113,"lng":-0.399752}},{"name":"Sept-Îles, Quebec, Canada","location":{"lat":50.21329679999999,"lng":-66.3757921}},{"name":"Setúbal, Portugal","location":{"lat":38.5260437,"lng":-8.8909328}},{"name":"Sevastopol, Ukraine","location":{"lat":44.61665,"lng":33.525367}},{"name":"Severomorsk, Russia","location":{"lat":69.0655058,"lng":33.4092689}},{"name":"Shannon/Foynes, Ireland","location":{"lat":52.6078189,"lng":-9.096576599999999}},{"name":"Shoreham-by-Sea, United Kingdom","location":{"lat":50.8342086,"lng":-0.2715558}},{"name":"Shuwaikh port, Kuwait","location":{"lat":29.3853472,"lng":47.9771916}},{"name":"Shën Gjin, Albania","location":{"lat":41.8142439,"lng":19.59177}},{"name":"Sidon, Lebanon","location":{"lat":33.5626094,"lng":35.3687268}},{"name":"Sihanoukville Autonomous Port, Kingdom of Cambodia","location":{"lat":10.6452882,"lng":103.4996415}},{"name":"Sines, Portugal","location":{"lat":37.9571555,"lng":-8.860890699999999}},{"name":"Sinǔiju, North Korea","location":{"lat":40.10302,"lng":124.3827}},{"name":"St. Augustine, Florida, United States","location":{"lat":29.9012437,"lng":-81.31243409999999}},{"name":"St. John's, Newfoundland and Labrador, Canada","location":{"lat":47.5605413,"lng":-52.71283150000001}},{"name":"St. Peter Port, Guernsey, United Kingdom","location":{"lat":49.455443,"lng":-2.5368711}},{"name":"Stavanger, Norway","location":{"lat":58.9699756,"lng":5.7331073}},{"name":"Stockton, California, United States","location":{"lat":37.9577016,"lng":-121.2907796}},{"name":"Stornoway, Scotland, United Kingdom","location":{"lat":58.209435,"lng":-6.3848692}},{"name":"Stranraer, Scotland","location":{"lat":54.903367,"lng":-5.024055}},{"name":"Subic Bay, Philippines","location":{"lat":14.7910576,"lng":120.2397336}},{"name":"Suez, Egypt","location":{"lat":29.9668343,"lng":32.5498069}},{"name":"Sukhumi, Georgia","location":{"lat":43.0015252,"lng":41.0234153}},{"name":"Sullom Voe, Scotland, United Kingdom","location":{"lat":56.49067119999999,"lng":-4.2026458}},{"name":"Sunderland, England, United Kingdom","location":{"lat":54.906869,"lng":-1.383801}},{"name":"Surigao, Philippines","location":{"lat":9.7571312,"lng":125.5137674}},{"name":"Surrey, British Columbia, Canada","location":{"lat":49.1044302,"lng":-122.801094}},{"name":"Swansea, Wales","location":{"lat":51.62144,"lng":-3.943645999999999}},{"name":"São Francisco do Sul, Brazil","location":{"lat":-26.2584141,"lng":-48.6348454}},{"name":"Tabaco, Philippines","location":{"lat":13.3240963,"lng":123.645139}},{"name":"Taganrog, Russia","location":{"lat":47.2416334,"lng":38.8676013}},{"name":"Talcahuano, Chile","location":{"lat":-36.7247834,"lng":-73.1169808}},{"name":"Tampico, Tamaulipas, Mexico","location":{"lat":22.2331041,"lng":-97.861099}},{"name":"Tangier, Morocco","location":{"lat":35.7594651,"lng":-5.833954299999999}},{"name":"Tangier, Morocco","location":{"lat":35.7594651,"lng":-5.833954299999999}},{"name":"Tanjung Langsat Port, Johor, Malaysia","location":{"lat":1.4853682,"lng":103.7618154}},{"name":"Tarragona, Spain","location":{"lat":41.1188827,"lng":1.2444909}},{"name":"Tauranga, New Zealand","location":{"lat":-37.68779749999999,"lng":176.1651295}},{"name":"Teignmouth, United Kingdom","location":{"lat":50.54703300000001,"lng":-3.496688}},{"name":"Tekirdağ, Turkey","location":{"lat":40.9780919,"lng":27.511674}},{"name":"Tel Aviv, Israel","location":{"lat":32.0852999,"lng":34.78176759999999}},{"name":"Terneuzen, Netherlands","location":{"lat":51.3322854,"lng":3.8324265}},{"name":"Thamesport, England, United Kingdom","location":{"lat":52.3555177,"lng":-1.1743197}},{"name":"Thessaloniki, Greece","location":{"lat":40.6400629,"lng":22.9444191}},{"name":"Thi Nai Port, Vietnam","location":{"lat":13.7799153,"lng":109.2451471}},{"name":"Thunder Bay, Ontario, Canada","location":{"lat":48.3808951,"lng":-89.2476823}},{"name":"Tianjin, China","location":{"lat":39.084158,"lng":117.200983}},{"name":"Tiksi, Russia","location":{"lat":71.6374819,"lng":128.8644716}},{"name":"Timaru, New Zealand","location":{"lat":-44.3969718,"lng":171.2549729}},{"name":"Toledo, Ohio, United States","location":{"lat":41.6639383,"lng":-83.55521200000001}},{"name":"Toronto, Ontario, Canada","location":{"lat":43.653226,"lng":-79.3831843}},{"name":"Townsville, Queensland, Australia","location":{"lat":-19.2576268,"lng":146.8178707}},{"name":"Trabzon, Turkey","location":{"lat":41.0026969,"lng":39.7167633}},{"name":"Tripoli, Lebanon","location":{"lat":34.4380941,"lng":35.8308371}},{"name":"Tripoli, Libya","location":{"lat":32.8872094,"lng":13.1913383}},{"name":"Trois-Rivières, Quebec, Canada","location":{"lat":46.3432397,"lng":-72.5432834}},{"name":"Tromsø, Norway","location":{"lat":69.6492047,"lng":18.9553238}},{"name":"Trondheim, Norway","location":{"lat":63.4305149,"lng":10.3950528}},{"name":"Tuen Mun, Hong Kong, China","location":{"lat":22.3908295,"lng":113.9725126}},{"name":"Tunis, Tunisia","location":{"lat":36.8064948,"lng":10.1815316}},{"name":"Tuticorin, Tamil Nadu, India","location":{"lat":8.764166099999999,"lng":78.1348361}},{"name":"Two Harbor, Minnesota, United States","location":{"lat":47.0227111,"lng":-91.67073219999999}},{"name":"Tétouan, Morocco","location":{"lat":35.5888995,"lng":-5.3625516}},{"name":"Umm Qasr, Iraq","location":{"lat":30.0397683,"lng":47.9267674}},{"name":"Ushuaia, Argentina","location":{"lat":-54.8019121,"lng":-68.3029511}},{"name":"Valencia, Spain","location":{"lat":39.4699075,"lng":-0.3762881}},{"name":"Vallejo, California, United States","location":{"lat":38.1040864,"lng":-122.2566367}},{"name":"Valparaíso, Chile","location":{"lat":-33.047238,"lng":-71.61268849999999}},{"name":"Vardø, Norway","location":{"lat":70.3706399,"lng":31.1095471}},{"name":"Venice, Italy","location":{"lat":45.4408474,"lng":12.3155151}},{"name":"Veracruz, Veracruz, Mexico","location":{"lat":19.173773,"lng":-96.1342241}},{"name":"Victoria, British Columbia, Canada","location":{"lat":48.4284207,"lng":-123.3656444}},{"name":"Visakhapatnam Port, Andhra Pradesh, India","location":{"lat":17.6831436,"lng":83.2398943}},{"name":"Vitino, Russia","location":{"lat":59.6532661,"lng":29.7159763}},{"name":"Vitória, Brazil","location":{"lat":-20.2976178,"lng":-40.2957768}},{"name":"Vladivostok, Russia","location":{"lat":43.1737387,"lng":132.0064506}},{"name":"Vlissingen, Netherlands","location":{"lat":51.4536672,"lng":3.5709125}},{"name":"Volos, Greece","location":{"lat":39.3621896,"lng":22.942159}},{"name":"Vostochny, Russia","location":{"lat":52.99592699999999,"lng":31.6084416}},{"name":"Vung Tau Port, Vietnam","location":{"lat":10.3743552,"lng":107.0912791}},{"name":"Wahran, Algeria","location":{"lat":35.6976541,"lng":-0.6337376}},{"name":"Walvis Bay, Namibia","location":{"lat":-22.9389587,"lng":14.5247463}},{"name":"Weihai, China","location":{"lat":37.513068,"lng":122.12042}},{"name":"Weipa, Queensland, Australia","location":{"lat":-12.6591475,"lng":141.8384064}},{"name":"Wellington, New Zealand","location":{"lat":-41.2864603,"lng":174.776236}},{"name":"Wilhelmshaven & JadeWeserPort, Germany","location":{"lat":53.53234029999999,"lng":8.1068722}},{"name":"Willemstad, Curaçao, Netherlands","location":{"lat":12.1224221,"lng":-68.8824233}},{"name":"Wilmington, Delaware, United States","location":{"lat":39.7390721,"lng":-75.5397878}},{"name":"Wilmington, North Carolina, United States","location":{"lat":34.2257255,"lng":-77.9447102}},{"name":"Wonsan, North Korea","location":{"lat":39.1538529,"lng":127.4460001}},{"name":"Wuhan, China","location":{"lat":30.593099,"lng":114.305393}},{"name":"Yalta, Ukraine","location":{"lat":44.49520500000001,"lng":34.166301}},{"name":"Yanbu, Saudi Arabia","location":{"lat":24.0231757,"lng":38.1899782}},{"name":"Yangon, Myanmar","location":{"lat":16.8660694,"lng":96.19513200000002}},{"name":"Yantian, Shenzhen, Guangdong, China","location":{"lat":22.556499,"lng":114.236875}},{"name":"Yeysk, Russia","location":{"lat":46.6825784,"lng":38.2702941}},{"name":"Yingkou, China","location":{"lat":40.667012,"lng":122.235418}},{"name":"Yuzhny, Ukraine","location":{"lat":46.8300172,"lng":29.6258455}},{"name":"Zamboanga, Philippines","location":{"lat":6.9214424,"lng":122.0790267}},{"name":"Zeila, Somalia","location":{"lat":11.3536874,"lng":43.4753136}},{"name":"Ålesund, Norway","location":{"lat":62.47222840000001,"lng":6.149482}},{"name":"İzmir, Turkey","location":{"lat":38.423734,"lng":27.142826}},{"name":"İzmit, Turkey","location":{"lat":40.7654408,"lng":29.9408089}}]}
